{"data":[{"id":1,"name":"남해포교당연꽃어린이집","sido":"경상남도","sigungu":"남해군","type":"법인·단체","personnel":"130","staff_num":"22","address":"경상남도 남해군 남해읍 망운로10번길 45-10","tel":"055-864-6230","fax":null,"nursery_count":"9","playground_count":"1","cctv_count":"12","school_car":"Y","homepage":null,"updated_at":"2018-07-31","provider_code":"5430000","provider_name":"경상남도 남해군","geo":{"type":"Point","coordinates":[127.8918157,34.84276621]}},{"id":2,"name":"모모어린이집","sido":"경상남도","sigungu":"남해군","type":"민간","personnel":"39","staff_num":"9","address":"경상남도 남해군 남해읍 오동로 13","tel":"055-864-5135","fax":null,"nursery_count":"4","playground_count":"0","cctv_count":"6","school_car":"Y","homepage":null,"updated_at":"2018-07-31","provider_code":"5430000","provider_name":"경상남도 남해군","geo":{"type":"Point","coordinates":[127.8931753,34.84417199]}},{"id":3,"name":"미조아이어린이집","sido":"경상남도","sigungu":"남해군","type":"민간","personnel":"27","staff_num":"2","address":"경상남도 남해군 미조면 미송로 11-19","tel":"055-867-1275","fax":null,"nursery_count":"3","playground_count":"0","cctv_count":"4","school_car":"Y","homepage":null,"updated_at":"2018-07-31","provider_code":"5430000","provider_name":"경상남도 남해군","geo":{"type":"Point","coordinates":[128.0436172,34.71603041]}},{"id":4,"name":"보물섬어린이집","sido":"경상남도","sigungu":"남해군","type":"국공립","personnel":"30","staff_num":"10","address":"경상남도 남해군 남해읍 스포츠로 20 102동 1층(평리, 평리휴먼시아)","tel":"055-863-6515","fax":null,"nursery_count":"4","playground_count":"0","cctv_count":"5","school_car":"Y","homepage":null,"updated_at":"2018-07-31","provider_code":"5430000","provider_name":"경상남도 남해군","geo":{"type":"Point","coordinates":[127.8967278,34.8332965]}},{"id":5,"name":"엄마손어린이집","sido":"경상남도","sigungu":"남해군","type":"가정","personnel":"20","staff_num":"7","address":"경상남도 남해군 남해읍 스포츠로 88","tel":"055-863-1594","fax":null,"nursery_count":"3","playground_count":"0","cctv_count":"4","school_car":"Y","homepage":null,"updated_at":"2018-07-31","provider_code":"5430000","provider_name":"경상남도 남해군","geo":{"type":"Point","coordinates":[127.8918576,34.82881925]}},{"id":6,"name":"에덴선교어린이집","sido":"경상남도","sigungu":"남해군","type":"법인·단체","personnel":"39","staff_num":"5","address":"경상남도 남해군 남면 남서대로748번길 49-5 에덴선교어린이집","tel":"055-862-9298","fax":null,"nursery_count":"4","playground_count":"0","cctv_count":"6","school_car":"Y","homepage":null,"updated_at":"2018-07-31","provider_code":"5430000","provider_name":"경상남도 남해군","geo":{"type":"Point","coordinates":[127.8908067,34.77386223]}},{"id":7,"name":"열린선교어린이집","sido":"경상남도","sigungu":"남해군","type":"법인·단체","personnel":"70","staff_num":"9","address":"경상남도 남해군 남해읍 망운로 35","tel":"055-863-1227","fax":null,"nursery_count":"5","playground_count":"1","cctv_count":"7","school_car":"Y","homepage":null,"updated_at":"2018-07-31","provider_code":"5430000","provider_name":"경상남도 남해군","geo":{"type":"Point","coordinates":[127.8907326,34.83778864]}},{"id":8,"name":"우정어린이집","sido":"경상남도","sigungu":"남해군","type":"민간","personnel":"99","staff_num":"17","address":"경상남도 남해군 남해읍 화전로38번가길 9","tel":"055-864-7660","fax":null,"nursery_count":"8","playground_count":"1","cctv_count":"12","school_car":"Y","homepage":null,"updated_at":"2018-07-31","provider_code":"5430000","provider_name":"경상남도 남해군","geo":{"type":"Point","coordinates":[127.896622,34.83561662]}},{"id":9,"name":"창선어린이집","sido":"경상남도","sigungu":"남해군","type":"법인·단체","personnel":"61","staff_num":"9","address":"경상남도 남해군 창선면 창선로131번길 20","tel":"055-867-4259","fax":null,"nursery_count":"5","playground_count":"1","cctv_count":"9","school_car":"Y","homepage":null,"updated_at":"2018-07-31","provider_code":"5430000","provider_name":"경상남도 남해군","geo":{"type":"Point","coordinates":[128.0095316,34.85921207]}},{"id":10,"name":"하늘빛어린이집","sido":"경상남도","sigungu":"남해군","type":"민간","personnel":"39","staff_num":"7","address":"경상남도 남해군 삼동면 동부대로1809번길 21 하늘빛어린이집 144동 1호(지족리)","tel":"055-867-8141","fax":null,"nursery_count":"4","playground_count":"1","cctv_count":"6","school_car":"Y","homepage":null,"updated_at":"2018-07-31","provider_code":"5430000","provider_name":"경상남도 남해군","geo":{"type":"Point","coordinates":[128.0034742,34.82888088]}},{"id":11,"name":"현대어린이집","sido":"경상남도","sigungu":"남해군","type":"민간","personnel":"34","staff_num":"10","address":"경상남도 남해군 남해읍 오동로 11","tel":"055-864-5139","fax":null,"nursery_count":"4","playground_count":"0","cctv_count":"6","school_car":"Y","homepage":null,"updated_at":"2018-07-31","provider_code":"5430000","provider_name":"경상남도 남해군","geo":{"type":"Point","coordinates":[127.8932962,34.84401379]}},{"id":12,"name":"남해어린이집","sido":"경상남도","sigungu":"남해군","type":"국공립","personnel":"92","staff_num":"14","address":"경상남도 남해군 남해읍 화전로43번길 11-15","tel":"055-864-6515","fax":null,"nursery_count":"6","playground_count":"1","cctv_count":"9","school_car":"Y","homepage":null,"updated_at":"2018-07-31","provider_code":"5430000","provider_name":"경상남도 남해군","geo":{"type":"Point","coordinates":[127.8952391,34.83373644]}}
]}